Type,Provider,Name,Location,Lat,Long_,Location_T,City
Free,AT&T,Clove Lakes Park,Near Baseball Field,40.6182,-74.1072,Outdoor,Staten Island
Free,AT&T,Battery Park,"Kiosk near center of Park, Near Battery Garden",40.7016,-74.0153,Outdoor,New York
Free,AT&T,The High Line,Near Chelsea Market,40.7436,-74.0069,Outdoor,New York
Free,AT&T,Thomas Paine Park,Near Story Corps Building,40.7145,-74.0029,Outdoor,New York
Free,AT&T,Brooklyn Bridge Park,"Pier 1, Pier 5, Pier 6",40.7024,-73.9964,Outdoor,Brooklyn
Free,Manhattan Down Alliance,10,"5 Hanover Square, New York, NY 10004, USA",40.7048988,-74.0093002,Outdoor,New York
Free,AT&T,Tompkin Square Park,Around the Field House,40.7268,-73.9814,Outdoor,New York
Free,AT&T,Central Park,Tavern on the Green,40.773,-73.9781,Outdoor,New York
Free,AT&T,Fort Green Park,Near Visitors Center,40.6921,-73.9757,Outdoor,Brooklyn
Free,AT&T,Central Park,Mineral Springs (around the restaurant),40.773,-73.9744,Outdoor,New York
Free,AT&T,Central Park,Around the Zoo,40.7677,-73.9719,Outdoor,New York
Free,AT&T,Prospect Park,Picnic House,40.6655,-73.9713,Outdoor,Brooklyn
Free,AT&T,McCarren Park,Field House and Restrooms,40.722,-73.9519,Outdoor,Brooklyn
Free,AT&T,Herbert Von King Park,Near Ampitheater Stage,40.6896,-73.9465,Outdoor,Brooklyn
Free,AT&T,Marcus Gravey Park,"Park Office Rooftop, Ampitheater",40.8048,-73.9443,Outdoor,New York
Free,AT&T,Thomas Jefferson Park,Near Park Building,40.7936,-73.9367,Outdoor,New York
Free,AT&T,Holcombe Rucker Park,"Near Basketball Courts, Playground",40.8293,-73.9365,Outdoor,New York
Free,AT&T,Astoria Park,Field House,40.7762,-73.9254,Outdoor,Queens
Free,AT&T,Joyce Kilmer Park,Play Area,40.8297,-73.9219,Outdoor,Bronx
Free,AT&T,Devoe Park,Near Park Building,40.8639,-73.9047,Outdoor,Bronx
Free,AT&T,Flushing Meadows Corona Park,Near Discovery Center,40.7445,-73.8507,Outdoor,Queens
Free,AT&T,Mcdonald Playground,Near Park Building,40.7224,-73.8471,Outdoor,Staten Island
Free,NYPL,Battery Park City Library,175 NORTH END AVENUE,40.71548815,-74.01621384,Library,New York
Free,BPL,Highlawn - Brooklyn Public Library,1664 WEST 13 STREET,40.60569034,-73.98623163,Library,Brooklyn
Free,BPL,Mapleton - Brooklyn Public Library,1702 60 STREET,40.62306453,-73.98944677,Library,Brooklyn
Free,QPL,Queens Central Library,89-11 MERRICK BOULEVARD,40.70787313,-73.79467804,Library,Jamaica
Free,QPL,Middle Village,72-31 METROPOLITAN AVENUE,40.71294357,-73.88086427,Library,Middle Village
Free,QPL,Queensboro Hill,60-05 MAIN STREET,40.74293095,-73.82516996,Library,Flushing
Free,NYPL,125th Street,224 EAST 125 STREET,40.80301816,-73.93484756,Library,New York
Free,BPL,Brooklyn Central Library,GRAND ARMY PLAZA,40.67234353,-73.96822438,Library,Brooklyn
Free,BPL,Sunset Park - Brooklyn Public Library,5108 4 AVENUE,40.64591212,-74.01363,Library,Brooklyn
Free,NYPL,Aguilar,174 EAST 110 STREET,40.79421561,-73.94345108,Library,New York
Free,BPL,Clinton Hill - Brooklyn Public Library,380 WASHINGTON AVENUE,40.68737909,-73.96603067,Library,Brooklyn
Free,Manhattan Down Alliance,1,"23 Fulton Street, New York, NY 10038, USA",40.7071991,-74.0037003,Outdoor,New York
Free,Manhattan Down Alliance,2,"19 Fulton Street, New York, NY 10038, USA",40.7070999,-74.0036011,Outdoor,New York
Free,Manhattan Down Alliance,3,"201 Front Street, New York, NY 10038, USA",40.7070007,-74.0035019,Outdoor,New York
Free,Manhattan Down Alliance,4,"11 Fulton Street, New York, NY 10038, USA",40.7066002,-74.0031967,Outdoor,New York
Free,Manhattan Down Alliance,5,"16 Bond Street, New York, NY 10038, USA",40.705101,-74.0026016,Outdoor,New York
Free,Manhattan Down Alliance,6,"East River Ferry, John Street, New York, NY 10006, USA",40.7047997,-74.0022964,Outdoor,New York
Free,Manhattan Down Alliance,7,"135 John Street, New York, NY 10038, USA",40.7070999,-74.0049973,Outdoor,New York
Free,Manhattan Down Alliance,8,"182-188 Front Street, New York, NY 10038, USA",40.706501,-74.0045013,Outdoor,New York
Free,Manhattan Down Alliance,9,"125-133 Maiden Lane, New York, NY 10038, USA",40.7062988,-74.0061035,Outdoor,New York
Free,Harlem,,203 West 117 St. St. Nicholas Side,40.80427859,-73.95253301,Outdoor,New York
Free,Manhattan Down Alliance,11,"110 Pearl Street, New York, NY 10005, USA",40.7047005,-74.0089035,Outdoor,New York
Free,Manhattan Down Alliance,12,"90 Water Street, New York, NY 10005, USA",40.7047005,-74.0083008,Outdoor,New York
Free,AT&T,South Beach Wetlands,Near South Fin Grill,40.588219,-74.067453,Outdoor,Staten Island
Free,Chelsea,,19th between 9th and 10th r,40.74457031,-74.00458854,Outdoor,New York
Free,Chelsea,,10th between 15th and 16th,40.74319278,-74.00738776,Outdoor,New York
Free,Chelsea,,16th near 9th r,40.74259125,-74.00506496,Outdoor,New York
Free,Chelsea,,16th between 8th and 9th,40.74183935,-74.00325716,Outdoor,New York
Free,Chelsea,,10th and 15th,40.74275383,-74.00767207,Outdoor,New York
Free,Chelsea,,9th Ave and 12th St,40.73948602,-74.00626659,Outdoor,New York
Free,Chelsea,,"10th between, 17th and 18th",40.74440799,-74.00663674,Outdoor,New York
Free,Chelsea,,9th between 16th and 17th,40.74260751,-74.0042603,Outdoor,New York
Free,Chelsea,,17th near 9th,40.74247745,-74.00296211,Outdoor,New York
Free,Chelsea,,8th and 18th,40.74229862,-74.00070906,Outdoor,New York
Free,Chelsea,,10th between 16th and 17th,40.74369675,-74.00701761,Outdoor,New York
Free,Chelsea,,8th and 17th,40.74155484,-74.00111139,Outdoor,New York
Free,Chelsea,,17th near 8th,40.74190031,-74.00185704,Outdoor,New York
Free,Chelsea,,9th and 19th SW,40.74398938,-74.00341272,Outdoor,New York
Free,Chelsea,,14thst and 9thav r,40.74099801,-74.0054512,Outdoor,New York
Free,Chelsea,,18th between 9th and 10th,40.74412756,-74.00504351,Outdoor,New York
Free,Chelsea,,9th av and 13th st,40.74025828,-74.00600374,Outdoor,New York
Free,Chelsea,,17th between 10th and 9th,40.74340615,-74.00521517,Outdoor,New York
Free,Chelsea,,18th between 8th and 9th,40.74277009,-74.00171757,Outdoor,New York
Free,Chelsea,,15th between 8th and 9th,40.74094924,-74.00340199,Outdoor,New York
Free,Chelsea,,16th east of 10th Av,40.74324155,-74.00680304,Outdoor,New York
Free,Chelsea,,9th and 18th,40.74343663,-74.00364876,Outdoor,New York
Free,Chelsea,,8th and 15 th SE pole,40.74027454,-74.00197506,Outdoor,New York
Free,Chelsea,,loading dock,40.7418464,-74.00404464,Outdoor,New York
Free,Chelsea,,85 10th lobby unit,40.74330658,-74.00802612,Outdoor,New York
Free,Chelsea,,85 10TH Ave,40.74311962,-74.00830507,Outdoor,New York
Free,Chelsea,,9th and 15th,40.74158329,-74.00471091,Outdoor,New York
Free,Chelsea,,8th and 16th,40.74104678,-74.0018034,Outdoor,New York
Free,Chelsea,,17th Caledonia,40.74363172,-74.00591791,Outdoor,New York
Free,Chelsea,,9th and 16th,40.74210214,-74.00421108,Outdoor,New York
Free,Harlem,,124w114,40.80152689,-73.95282197,Outdoor,New York
Free,Harlem,,1330 5th Avenue,40.7978934,-73.9487856,Outdoor,New York
Free,Harlem,,1641 Madison Ave,40.79591622,-73.94756162,Outdoor,New York
Free,Harlem,,17 East 124th Street,40.80551147,-73.94198917,Outdoor,New York
Free,Harlem,,1735 Madison Ave,40.79872757,-73.94559846,Outdoor,New York
Free,Harlem,,1780 Madison Ave,40.8004791,-73.9446963,Outdoor,New York
Free,Harlem,,182 St. Nicholas Street,40.806016,-73.9524,Outdoor,New York
Free,Harlem,,1851 Adam Clayton Powell Jr Blvd,40.80113678,-73.95377778,Outdoor,New York
Free,Harlem,,203 West 117 St. Adam Clayton Side,40.80416896,-73.95213336,Outdoor,New York
Free,Harlem,,2037 7Th Avenue,40.80685816,-73.94972563,Outdoor,New York
Free,Harlem,,210 west 131st St,40.81251814,-73.94606173,Outdoor,New York
Free,Harlem,,2102 Madison Ave,40.81064642,-73.93724866,Outdoor,New York
Free,Harlem,,211 129Th Street,40.81218623,-73.94795532,Outdoor,New York
Free,Harlem,,2117 Frederick Douglas Blvd.,40.80348996,-73.95609391,Outdoor,New York
Free,Harlem,,2201 5th Ave,40.81218115,-73.93783405,Outdoor,New York
Free,Harlem,,23 West 124th Street,40.80629717,-73.94391242,Outdoor,New York
Free,Harlem,,2321ACP,40.8159733,-73.943071,Outdoor,New York
Free,Harlem,,2374 Frederick Douglas blvd,40.8116079,-73.9500995,Outdoor,New York
Free,Harlem,,2411FDB,40.81287072,-73.94934647,Outdoor,New York
Free,Harlem,,245W129th,40.8115678,-73.9465374,Outdoor,New York
Free,Harlem,,2491 Frederick Douglas Blvd.,40.8153473,-73.94757621,Outdoor,New York
Free,Harlem,,35E125 unit 1,40.80597071,-73.94056642,Outdoor,New York
Free,Harlem,,35E125 unit 2,40.80597412,-73.94124448,Outdoor,New York
Free,Harlem,,3e 118th st,40.80184633,-73.94513726,Outdoor,New York
Free,Harlem,,42 West 120th Street,40.80379824,-73.94619402,Outdoor,New York
Free,Harlem,,50 Lenox Ave. 112th St. Side,40.7994353,-73.95099431,Outdoor,New York
Free,Harlem,,50 Lenox Ave,40.79970332,-73.95099431,Outdoor,New York
Free,Harlem,,9 East 110th street,40.79726984,-73.95015178,Outdoor,New York
Free,Harlem,,100 West 121st Street,40.805199,-73.947736,Outdoor,New York
Free,Harlem,,Madison Avenue & 111th,40.79655364,-73.94747365,Outdoor,New York
Free,Harlem,,Madison Avenue WS @ ~113th (in front of stores),40.79789269,-73.94625878,Outdoor,New York
Free,Harlem,,Madison Avenue ES - 1s of 116th,40.79972078,-73.94493216,Outdoor,New York
Free,Harlem,,Madison Avenue & 112th,40.79733506,-73.9469239,Outdoor,New York
Free,Harlem,,Madison Avenue & 115th,40.80111217,-73.9437958,Outdoor,New York
Free,Harlem,,Madison Avenue & 119th,40.80183166,-73.94346235,Outdoor,New York
Free,Harlem,,Madison Avenue & 120th (North West Corner),40.80261667,-73.94302601,Outdoor,New York
Free,Harlem,,112th between Lenox Avenue & 5th Avenue,40.79880613,-73.94997525,Outdoor,New York
Free,Harlem,,5th Avenue & 119th,40.80268449,-73.94515788,Outdoor,New York
Free,Harlem,,117th & 5th Avenue,40.80134985,-73.94575617,Outdoor,New York
Free,Harlem,,5th Avenue & 116th,40.80059215,-73.94668534,Outdoor,New York
Free,Harlem,,5th Avenue (in front of firehouse) between 112th & 115th,40.79915104,-73.94749939,Outdoor,New York
Free,Harlem,,110th ss between Madison Avenue & 5th Avenue,40.79652765,-73.94849181,Outdoor,New York
Free,Harlem,,111th & Saint Nicholas,40.79916268,-73.95235598,Outdoor,New York
Free,Harlem,,Lenox Avenue & 115th,40.80105313,-73.95004177,Outdoor,New York
Free,Harlem,,Lenox Avenue between 113th & 114th,40.80019373,-73.95075041,Outdoor,New York
Free,Harlem,,111th & 7th Avenue,40.79992761,-73.95454949,Outdoor,New York
Free,Harlem,,111th between 5th Avenue & Lenox Avenue,40.79810224,-73.95034933,Outdoor,New York
Free,Harlem,,113th & Saint Nicholas,40.80054594,-73.9524267,Outdoor,New York
Free,Harlem,,115th & Saint Nicholas,40.80229788,-73.95240498,Outdoor,New York
Free,Harlem,,112th & 7th Avenue,40.80065247,-73.95461583,Outdoor,New York
Free,Harlem,,114th @ 7th Avenue,40.8019512,-73.9535543,Outdoor,New York
Free,Harlem,,116th intersection of Saint Nicholas & 7th Avenue,40.80351121,-73.95294213,Outdoor,New York
Free,Harlem,,118th & Saint Nicholas,40.80530219,-73.95305443,Outdoor,New York
Free,Harlem,,120th & Saint Nicholas,40.80641205,-73.95266211,Outdoor,New York
Free,Harlem,,120 & 7th Avenue  NEC,40.80558439,-73.95053565,Outdoor,New York
Free,Harlem,,119 & 7th Avenue,40.8049251,-73.95097375,Outdoor,New York
Free,Harlem,,119th & Lenox Avenue,40.80381169,-73.94786239,Outdoor,New York
Free,Harlem,,113th between 7th Avenue & 8th Avenue (FDB),40.80185553,-73.9556694,Outdoor,New York
Free,Harlem,,120th & 8th Avenue (FDB),40.80689982,-73.95362556,Outdoor,New York
Free,Harlem,,118th & 8th Avenue (FDB),40.80548231,-73.95437947,Outdoor,New York
Free,Harlem,,116th & 8th Avenue (FDB),40.80426892,-73.95538759,Outdoor,New York
Free,Harlem,,113th & 8th Avenue (FDB),40.80243865,-73.95662391,Outdoor,New York
Free,Harlem,,111th & 8th Avenue (FDB),40.8012938,-73.95772219,Outdoor,New York
Free,Harlem,,Madison @ 121 â west side,40.8031737,-73.9425249,Outdoor,New York
Free,Harlem,,Madison @ 123rd West side,40.80424184,-73.94177985,Outdoor,New York
Free,Harlem,,Madison & 124th SW corner,40.80495761,-73.94137377,Outdoor,New York
Free,Harlem,,124th st @ 5th Avenue Ave (south side),40.80562354,-73.94281154,Outdoor,New York
Free,Harlem,,124th st South Side 2nd pole East of 5th ave,40.80656922,-73.94497715,Outdoor,New York
Free,Harlem,,Fredrick Douglas blvd NWC 124th st,40.80957631,-73.95168943,Outdoor,New York
Free,Harlem,,7th Avenue av NWC 124 st,40.8083376,-73.94898716,Outdoor,New York
Free,Harlem,,Pole across from 112w124th,40.80726323,-73.94663744,Outdoor,New York
Free,Harlem,,121thst Street NE corner (just off Lenox Avenue),40.80508324,-73.9468782,Outdoor,New York
Free,Harlem,,121th st NS2E ACP blvd,40.80617162,-73.94945333,Outdoor,New York
Free,Harlem,,Fredrick Douglas blvd ES1N 121th st,40.80783947,-73.95270116,Outdoor,New York
Free,Harlem,,Fredrick Douglas blvd ES1N 122th st,40.80842432,-73.95222888,Outdoor,New York
Free,Harlem,,124th st SS2E Fredrick Douglas blvd,40.80886858,-73.95046878,Outdoor,New York
Free,Harlem,,8th Ave SEC @ 126th St.,40.81060062,-73.95057685,Outdoor,New York
Free,Harlem,,126th St NS2E of 8th Ave,40.8101782,-73.9489244,Outdoor,New York
Free,Harlem,,8th Ave SEC @ 127th St.,40.81126633,-73.95012624,Outdoor,New York
Free,Harlem,,126th St NS2E of Lenox Avenue Ave,40.80795333,-73.9437531,Outdoor,New York
Free,Harlem,,Madison Ave NWC @ 126th St.,40.80650425,-73.94019477,Outdoor,New York
Free,Harlem,,Madison Ave NWC @ 127th St.,40.80711331,-73.93973343,Outdoor,New York
Free,Harlem,,Madison Ave SEC @ 128th St,40.80760468,-73.93922298,Outdoor,New York
Free,Harlem,,127th between Lenox Avenue & 5th Avenue,40.80869084,-73.94358024,Outdoor,New York
Free,Harlem,,Madison Ave NWC @ 129th St.,40.80829699,-73.93888993,Outdoor,New York
Free,Harlem,,5th Ave SEC @ 128th St.,40.80806961,-73.9407943,Outdoor,New York
Free,Harlem,,Lenox Avenue Ave WS1N of 129th St,40.81053206,-73.94367081,Outdoor,New York
Free,Harlem,,7th Ave NWC @ 128th St.,40.81091212,-73.94681983,Outdoor,New York
Free,Harlem,,129th St SS2E of Lenox Avenue Ave,40.80961707,-73.94211652,Outdoor,New York
Free,Harlem,,130th St NS2(E) of 7th Avenue,40.81119779,-73.94386554,Outdoor,New York
Free,Harlem,,7th ave NWC @ 130 St.,40.81190554,-73.9463194,Outdoor,New York
Free,Harlem,,130th South East Corner 8th Avenue (FDB) Ave,40.8133664,-73.9488431,Outdoor,New York
Free,Harlem,,7th Ave SECC @ 131th St.,40.81246482,-73.94538689,Outdoor,New York
Free,Harlem,,131th St. NS1E of 7th Ave,40.81130391,-73.94298356,Outdoor,New York
Free,Harlem,,Lenox Avenue Ave WS1N of 131th St.,40.81184146,-73.9427247,Outdoor,New York
Free,Harlem,,131th St NS2E of Lenox Avenue Ave,40.81108221,-73.94154811,Outdoor,New York
Free,Harlem,,8th Ave WS2N of 131th St.,40.81398598,-73.94835949,Outdoor,New York
Free,Harlem,,132th St. NS2E of 8th Ave,40.8141251,-73.94699335,Outdoor,New York
Free,Harlem,,5th Ave WS1N of 130th St.,40.80988148,-73.93899608,Outdoor,New York
Free,Harlem,,131th St NS1E of 5th Ave,40.80955666,-73.9398973,Outdoor,New York
Free,Harlem,,132th St. NS2E of 7th Ave,40.81300405,-73.94428954,Outdoor,New York
Free,Harlem,,132th St. NS2E of Lenox Avenue Ave,40.81183475,-73.94134984,Outdoor,New York
Free,Harlem,,5th Ave SWC @ 132th St.,40.81079535,-73.93892512,Outdoor,New York
Free,Harlem,,133th St NS2E of 8th Ave,40.81608851,-73.94668847,Outdoor,New York
Free,Harlem,,7th Ave SEC @ 133th St.,40.81392973,-73.94495473,Outdoor,New York
Free,Harlem,,133th St NS1E of 7th Ave,40.815661,-73.946925,Outdoor,New York
Free,Harlem,,133th St. NS3E of 7th Ave,40.80955879,-73.94341707,Outdoor,New York
Free,Harlem,,5th Ave WS3N of 132th St.,40.8115749,-73.93845305,Outdoor,New York
Free,Harlem,,136th St. NS2E of Lenox Avenue Ave,40.81450873,-73.9407313,Outdoor,New York
Free,Harlem,,135th St. North Side 2poles East of Lenox Ave,40.81667715,-73.94639182,Outdoor,New York
Free,Downtown Brooklyn,,25 Lafayette Ave.,40.68697,-73.978033,Outdoor,Brooklyn
Free,Downtown Brooklyn,,25 Lafayette Ave.,40.68697,-73.978033,Outdoor,Brooklyn
Free,Downtown Brooklyn,,25 Lafayette Ave.,40.68697,-73.978033,Outdoor,Brooklyn
Free,Downtown Brooklyn,,25 Lafayette Ave.,40.68697,-73.978033,Outdoor,Brooklyn
Free,Downtown Brooklyn,,1 Boerum Place,40.69186,-73.988721,Outdoor,Brooklyn
Free,Downtown Brooklyn,,1 Boerum Place,40.691677,-73.988841,Outdoor,Brooklyn
Free,Downtown Brooklyn,,1 Boerum Place,40.691569,-73.988711,Outdoor,Brooklyn
Free,Downtown Brooklyn,,409 Fulton St.,40.692178,-73.988304,Outdoor,Brooklyn
Free,Downtown Brooklyn,,409 Fulton St.,40.692023,-73.988433,Outdoor,Brooklyn
Free,Downtown Brooklyn,,409 Fulton St.,40.691976,-73.988311,Outdoor,Brooklyn
Free,Downtown Brooklyn,,409 Fulton St.,40.692174,-73.988669,Outdoor,Brooklyn
Free,Downtown Brooklyn,,409 Fulton St.,40.692178,-73.988304,Outdoor,Brooklyn
Free,Downtown Brooklyn,,356 Fulton St.,40.69159004,-73.98818933,Outdoor,Brooklyn
Free,Downtown Brooklyn,,356 Fulton St.,40.691738,-73.988131,Outdoor,Brooklyn
Free,Downtown Brooklyn,,469 Fulton St.,40.691224,-73.98662,Outdoor,Brooklyn
Free,Downtown Brooklyn,,469 Fulton St.,40.691224,-73.98662,Outdoor,Brooklyn
Free,Downtown Brooklyn,,442 Fulton St. (Pole),40.690364,-73.984435,Outdoor,Brooklyn
Free,Downtown Brooklyn,,442 Fulton St. (Pole),40.690364,-73.984435,Outdoor,Brooklyn
Free,Downtown Brooklyn,,466 Fulton St. (Pole),40.689334,-73.981975,Outdoor,Brooklyn
Free,Downtown Brooklyn,,466 Fulton St. (Pole),40.689334,-73.981975,Outdoor,Brooklyn
Free,Downtown Brooklyn,,255 Duffield St.,40.690406,-73.983931,Outdoor,Brooklyn
Free,Downtown Brooklyn,,255 Duffield St.,40.690406,-73.983931,Outdoor,Brooklyn
Free,Downtown Brooklyn,,80 Hanson Place,40.685308,-73.974472,Outdoor,Brooklyn
Free,Downtown Brooklyn,,80 Hanson Place,40.685308,-73.974472,Outdoor,Brooklyn
Free,Downtown Brooklyn,,34 Dekalb Ave. (Pole),40.689942,-73.982158,Outdoor,Brooklyn
Free,Downtown Brooklyn,,34 Dekalb Ave. (Pole),40.689942,-73.982158,Outdoor,Brooklyn
Free,Downtown Brooklyn,,Boro Hall Park (Pole),40.69324218,-73.99020085,Outdoor,Brooklyn
Free,Downtown Brooklyn,,Boro Hall Park (Pole),40.693069,-73.990089,Outdoor,Brooklyn
Free,Downtown Brooklyn,,333 Adams St.,40.693625,-73.988519,Outdoor,Brooklyn
Free,Downtown Brooklyn,,333 Adams St.,40.693636,-73.988347,Outdoor,Brooklyn
Free,Downtown Brooklyn,,333 Adams St.,40.693636,-73.988347,Outdoor,Brooklyn
Free,Downtown Brooklyn,,333 Adams St.,40.693636,-73.988347,Outdoor,Brooklyn
Free,Downtown Brooklyn,,333 Adams St.,40.693636,-73.988347,Outdoor,Brooklyn
Free,Downtown Brooklyn,,333 Adams St.,40.693636,-73.988347,Outdoor,Brooklyn
Free,Downtown Brooklyn,,333 Adams St.,40.693636,-73.988347,Outdoor,Brooklyn
Free,Downtown Brooklyn,,333 Adams St.,40.693636,-73.988347,Outdoor,Brooklyn
Free,Downtown Brooklyn,,370 Jay St. (Pole),40.693348,-73.987419,Outdoor,Brooklyn
Free,Downtown Brooklyn,,254 Flatbush Ave. Extension (pole),40.692723,-73.983025,Outdoor,Brooklyn
Free,Downtown Brooklyn,,254 Flatbush Ave. Extension (pole),40.692723,-73.983025,Outdoor,Brooklyn
Free,Downtown Brooklyn,,20 Lafayette Ave.,40.686371,-73.978541,Outdoor,Brooklyn
Free,Downtown Brooklyn,,20 Lafayette Ave.,40.686371,-73.978541,Outdoor,Brooklyn
Free,Downtown Brooklyn,,125 Flatbush Ave. Extension,40.695578,-73.98397,Outdoor,Brooklyn
Free,Downtown Brooklyn,,1 Dekalb Ave.,40.690137,-73.983226,Outdoor,Brooklyn
Free,Downtown Brooklyn,,1 University Plaza (LIU),40.690233,-73.981328,Outdoor,Brooklyn
Free,Downtown Brooklyn,,1 University Plaza (LIU),40.689967,-73.981214,Outdoor,Brooklyn
Free,Downtown Brooklyn,,1 University Plaza (LIU),40.689989,-73.980928,Outdoor,Brooklyn
Free,Transit Wireless,"14th Street -7th Avenue - 1, 2, 3",14th Street - 7th Avenue,40.745906,-74.000201,Subway Station,New York
Free,Transit Wireless,"14th Street- 8th Avenue - A, C, E, L",14th Street - 8th Avenue,40.740893,-74.00169,Subway Station,New York
Free,Transit Wireless,"14th Street - 6th Avenue - F, M",Between 14th and 16th Streets on 6th Avenue,40.737335,-73.996786,Subway Station,New York
Free,Transit Wireless,"14th Street - 6th Avenue - F, M, L",14th Street - 6th Avenue,40.738228,-73.996209,Subway Station,New York
Free,Transit Wireless,18 Street - 1,18th Street - 7th Avenue,40.74104,-73.997871,Subway Station,New York
Free,Transit Wireless,23 Street - 1,23rd Street - 7th Avenue,40.744081,-73.995657,Subway Station,New York
Free,Transit Wireless,"23rd Street - C, E",23rd Street - 8th Avenue,40.745906,-73.998041,Subway Station,New York
Free,Transit Wireless,"23rd Street - N, R",23rd Street â Broadway,40.741303,-73.989344,Subway Station,New York
Free,Transit Wireless,23rd Street - F,West 23 Street and 6 Avenue,40.743106,-73.992824,Subway Station,New York
Free,Transit Wireless,23rd Street - 6,East 23 Street and Park Avenue,40.740402,-73.986461,Subway Station,New York
Free,Transit Wireless,28th Street - 1,28th Street  - 7th Avenue,40.747215,-73.993365,Subway Station,New York
Free,Transit Wireless,"28th Street - Broadway - N, R",28th Street - Broadway,40.745494,-73.988691,Subway Station,New York
Free,Transit Wireless,28th Street - 6,28th Street - Park Avenue South,40.743263,-73.984293,Subway Station,New York
Free,Downtown Brooklyn,,1 University Plaza (LIU),40.690622,-73.981414,Outdoor,Brooklyn
Free,Downtown Brooklyn,,125 Court St.,40.689906,-73.991944,Outdoor,Brooklyn
Free,Downtown Brooklyn,,125 Court St.,40.689967,-73.992083,Outdoor,Brooklyn
Free,Downtown Brooklyn,,125 Court St.,40.689997,-73.992,Outdoor,Brooklyn
Free,Downtown Brooklyn,,125 Court St.,40.690022,-73.991897,Outdoor,Brooklyn
Free,Downtown Brooklyn,,110 Livingston St.,40.690883,-73.989635,Outdoor,Brooklyn
Free,Downtown Brooklyn,,110 Livingston St.,40.690883,-73.989635,Outdoor,Brooklyn
Free,Downtown Brooklyn,,110 Livingston St.,40.690883,-73.989635,Outdoor,Brooklyn
Free,Downtown Brooklyn,,110 Livingston St.,40.690883,-73.989635,Outdoor,Brooklyn
Free,Downtown Brooklyn,,110 Livingston St.,40.690883,-73.989635,Outdoor,Brooklyn
Free,Downtown Brooklyn,,110 Livingston St.,40.690883,-73.989635,Outdoor,Brooklyn
Free,Downtown Brooklyn,,110 Livingston St.,40.690883,-73.989635,Outdoor,Brooklyn
Free,Downtown Brooklyn,,573 Fulton St. (Pole),40.689334,-73.981975,Outdoor,Brooklyn
Free,Transit Wireless,33rd Street - 6,33rd Street - Park Avenue South,40.746311,-73.982126,Subway Station,New York
Free,Transit Wireless,"34th Street - Herald Square - N, Q, R",34th STREET - 6 Avenue and Broadway,40.749573,-73.987958,Subway Station,New York
Free,Downtown Brooklyn,,573 Fulton St. (Pole),40.689334,-73.981975,Outdoor,Brooklyn
Free,Transit Wireless,"34th Street - Herald Square - B, D, F, M",34th STREET - 6 Avenue and Broadway,40.749708,-73.987813,Subway Station,New York
Free,Transit Wireless,"42nd Street - Bryant Park - B, D, F, M",42th Street - 6 Avenue,40.754226,-73.984574,Subway Station,New York
Free,Transit Wireless,"42nd Street â Port Authority - A, C, E",42nd Street â Port Authority,40.757308,-73.989735,Subway Station,New York
Free,Transit Wireless,"47-50th Street â Rockefeller Center - B, D, F, M",47-50th Street â Rockefeller Center,40.758663,-73.981329,Subway Station,New York
Free,Transit Wireless,"49th Street â 7th Avenue - N, R",49th Street - 7th Avenue,40.759901,-73.984139,Subway Station,New York
Free,Transit Wireless,"50th St. â 8th Avenue - C, E",50th Street - 8th Avenue,40.762456,-73.985984,Subway Station,New York
Free,Transit Wireless,50 Street - 1,50th Street - Broadway,40.761728,-73.983849,Subway Station,New York
Free,Transit Wireless,57th Street - F,57th Street - 6th Avenue,40.763971,-73.977451,Subway Station,New York
Free,Transit Wireless,"57th Street - N, Q, R",57th Street - 7th Avenue (Midtown),40.764664,-73.980658,Subway Station,New York
Free,Transit Wireless,59th Street - Columbus Circle - 1,Broadway - West 59 Street- Columbus Circle,40.768243,-73.981936,Subway Station,New York
Free,Transit Wireless,"59th Street - Columbus Circle - A, B, C, D",Broadway - West 59 Street- Columbus Circle,40.768295,-73.981738,Subway Station,New York
Free,Transit Wireless,"5th Avenue - 53rd Street - E, M",5th Avenue - 53rd Street,40.760167,-73.975224,Subway Station,New York
Free,Transit Wireless,"5th Avenue - 59th Street - N, R",5th Avenue - 59th Street,40.764811,-73.973347,Subway Station,New York
Free,NYPL,Bloomingdale,150 WEST 100 STREET,40.79591999,-73.96784852,Library,New York
Free,NYPL,City Island,320 CITY ISLAND AVENUE,40.8476919,-73.78636659,Library,Bronx
Free,BPL,Canarsie - Brooklyn Public Library,1580 ROCKAWAY PARKWAY,40.64220845,-73.89952442,Library,Brooklyn
Free,BPL,Sheepshead Bay - Brooklyn Public Library,2636 EAST 14 STREET,40.58699996,-73.95542836,Library,Brooklyn
Free,NYPL,Woodlawn Heights,4355 KATONAH AVENUE,40.90043991,-73.867942,Library,Bronx
Free,BPL,Red Hook - Brooklyn Public Library,7 WOLCOTT STREET,40.67525519,-74.01035129,Library,Brooklyn
Free,BPL,Brower Park - Brooklyn Public Library,725 ST MARKS AVENUE,40.67537085,-73.94856614,Library,Brooklyn
Free,BPL,Pacific - Brooklyn Public Library,25 4 AVENUE,40.68345883,-73.97854148,Library,Brooklyn
Free,QPL,Glen Oaks,256-04 UNION TURNPIKE,40.74515052,-73.71483776,Library,Glen Oaks
Free,NYPL,Mosholu,285 EAST 205 STREET,40.87437981,-73.87838435,Library,Bronx
Free,QPL,Arverne,312 BEACH 54 STREET,40.59314678,-73.78404003,Library,Arverne
Free,NYPL,Washington Heights,1000 ST NICHOLAS AVENUE,40.83451521,-73.93967458,Library,New York
Free,BPL,Gerritsen Beach - Brooklyn Public Library,2808 GERRITSEN AVENUE,40.59135705,-73.92396467,Library,Brooklyn
Free,BPL,Greenpoint - Brooklyn Public Library,107 NORMAN AVENUE,40.72605066,-73.95069029,Library,Brooklyn
Free,NYPL,Riverdale,5540 MOSHOLU AVENUE,40.90372278,-73.90277254,Library,Bronx
Free,NYPL,West Farms,2085 HONEYWELL AVENUE,40.84467409,-73.88304469,Library,Bronx
Free,NYPL,Mott Haven,321 EAST 140 STREET,40.81159621,-73.92436634,Library,Bronx
Free,QPL,South Hollis,204-01 HOLLIS AVENUE,40.70701056,-73.75379667,Library,South Hollis
Free,NYPL,Webster,1465 YORK AVENUE,40.77065254,-73.95134169,Library,New York
Free,QPL,Woodhaven,85-41 FOREST PARKWAY,40.69454658,-73.86144646,Library,Woodhaven
Free,NYPL,58th Street,127 EAST 58 STREET,40.76218602,-73.9693817,Library,New York
Free,NYPL,Tompkins Square,331 EAST 10 STREET,40.72730731,-73.98040767,Library,New York
Free,NYPL,Morningside Heights,2900 BROADWAY,40.80609082,-73.96476206,Library,New York
Free,QPL,Astoria,14-01 ASTORIA BOULEVARD,40.77238289,-73.92871881,Library,Long Island City
Free,BPL,Saratoga - Brooklyn Public Library,8 THOMAS S BOYLAND STREET,40.68481005,-73.91513242,Library,Brooklyn
Free,NYPL,Baychester,2049 ASCH LOOP NORTH,40.87050192,-73.82865793,Library,Bronx
Free,NYPL,Tottenville,7430 AMBOY ROAD,40.50953112,-74.24410671,Library,Staten Island
Free,NYPL,Hamilton Grange,503 WEST 145 STREET,40.82567237,-73.94803242,Library,New York
Free,NYPL,Kingsbridge,280 WEST 231 STREET,40.88032228,-73.90798337,Library,Bronx
Free,QPL,Queens Village,94-11 217 STREET,40.71988555,-73.73904382,Library,Queens Village
Free,NYPL,115th Street,203 WEST 115 STREET,40.80297988,-73.95353074,Library,New York
Free,NYPL,Parkchester,1985 WESTCHESTER AVENUE,40.8337363,-73.85835522,Library,Bronx
Free,BPL,Jamaica Bay - Brooklyn Public Library,9727 SEAVIEW AVENUE,40.63447461,-73.88930465,Library,Brooklyn
Free,QPL,Kew Gardens Hills,72-33 VLEIGH PLACE,40.72591849,-73.82071907,Library,Flushing
Free,NYPL,96th Street,112 EAST 96 STREET,40.7859598,-73.95180567,Library,New York
Free,NYPL,Columbus,742 10 AVENUE,40.76493462,-73.99122082,Library,New York
Free,NYPL,Stapleton,132 CANAL STREET,40.62623761,-74.07784609,Library,Staten Island
Free,NYPL,Dongan Hills,1617 RICHMOND ROAD,40.59039134,-74.10113729,Library,Staten Island
Free,QPL,Douglaston/Little Neck,249-01 NORTHERN BOULEVARD,40.76822543,-73.73822944,Library,Little Neck
Free,NYPL,Mid Manhattan,455 5 AVENUE,40.75189156,-73.98169851,Library,New York
Free,NYPL,Port Richmond,75 BENNETT STREET,40.63758562,-74.13110462,Library,Staten Island
Free,BPL,Cypress Hills - Brooklyn Public Library,1197 SUTTER AVENUE,40.67270609,-73.87403349,Library,Brooklyn
Free,QPL,"Queensbridge, Now a Family Literacy Center",10-43 41 AVENUE,40.7552002,-73.94422389,Library,Long Island City
Free,BPL,Washington Irving - Brooklyn Public Library,360 IRVING AVENUE,40.69748225,-73.91221062,Library,Brooklyn
Free,NYPL,South Beach,21-25 ROBIN ROAD,40.59581815,-74.06298047,Library,Staten Island
Free,BPL,Homecrest - Brooklyn Public Library,2525 CONEY ISLAND AVENUE,40.59523686,-73.96059937,Library,Brooklyn
Free,BPL,Mckinley Park - Brooklyn Public Library,6802 FT HAMILTON PARKWAY,40.6292121,-74.01186967,Library,Brooklyn
Free,QPL,Court Square,25-01 JACKSON AVENUE,40.74706242,-73.94424368,Library,Long Island City
Free,BPL,Clarendon - Brooklyn Public Library,2035 NOSTRAND AVENUE,40.63574128,-73.94762003,Library,Brooklyn
Free,QPL,Poppenhusen,121-23 14 AVENUE,40.78624914,-73.84601328,Library,College Point
Free,QPL,Forest Hills,108-19 71 AVENUE,40.72214695,-73.843015,Library,Forest Hills
Free,NYPL,St. George Library Center,5 CENTRAL AVENUE,40.64178537,-74.07664577,Library,Staten Island
Free,BPL,Flatbush - Brooklyn Public Library,22 LINDEN BOULEVARD,40.65192508,-73.95824218,Library,Brooklyn
Free,NYPL,Pelham Bay,3060 MIDDLETOWN ROAD,40.84429267,-73.82788991,Library,Bronx
Free,NYPL,Van Cortlandt,3874 SEDGWICK AVENUE,40.88275976,-73.89392241,Library,Bronx
Free,NYPL,Melrose,910 MORRIS AVENUE,40.82659193,-73.91758265,Library,Bronx
Free,QPL,Mcgoldrick,155-06 ROOSEVELT AVENUE,40.76375032,-73.80983348,Library,Flushing
Free,BPL,Dekalb - Brooklyn Public Library,790 BUSHWICK AVENUE,40.6948167,-73.92839867,Library,Brooklyn
Free,NYPL,Francis Martin,2150 UNIVERSITY AVENUE,40.85742189,-73.90931635,Library,Bronx
Free,BPL,Kings Bay - Brooklyn Public Library,3650 NOSTRAND AVENUE,40.59486152,-73.94112492,Library,Brooklyn
Free,QPL,Rosedale,144-20 243 STREET,40.65996362,-73.73991101,Library,Rosedale
Free,BPL,New Lots - Brooklyn Public Library,665 NEW LOTS AVENUE,40.66515937,-73.88607054,Library,Brooklyn
Free,NYPL,Morrisania,610 EAST 169 STREET,40.83126372,-73.90178898,Library,Bronx
Free,QPL,Lefrak City,98-30 57 AVENUE,40.73743414,-73.86165593,Library,Corona
Free,BPL,New Utrecht - Brooklyn Public Library,1743 86 STREET,40.60800935,-74.00337655,Library,Brooklyn
Free,NYPL,Soundview,660 SOUNDVIEW AVENUE,40.81870935,-73.86288996,Library,Bronx
Free,NYPL,Van Nest,2147 BARNES AVENUE,40.85487778,-73.86414358,Library,Bronx
Free,BPL,Rugby - Brooklyn Public Library,1000 UTICA AVENUE,40.64863671,-73.93037392,Library,Brooklyn
Free,QPL,Jackson Heights,35-51 81 STREET,40.75019609,-73.88506932,Library,Jackson Heights
Free,NYPL,Muhlenberg,209 WEST 23 STREET,40.74451005,-73.99595972,Library,New York
Free,QPL,Rego Park,91-41 63 DRIVE,40.72731656,-73.86450283,Library,Rego Park
Free,BPL,Dyker - Brooklyn Public Library,8202 13 AVENUE,40.61630814,-74.01198852,Library,Brooklyn
Free,BPL,Carroll Gardens - Brooklyn Public Library,396 CLINTON STREET,40.68321352,-73.99801906,Library,Brooklyn
Free,QPL,Auburndale,25-55 FRANCIS LEWIS BOULEVARD,40.77375211,-73.79634319,Library,Flushing
Free,QPL,Langston Hughes,100-01 NORTHERN BOULEVARD,40.7577119,-73.8682003,Library,Corona
Free,QPL,Whitestone,151-10 14 ROAD,40.78853144,-73.81071656,Library,Whitestone
Free,BPL,Spring Creek - Brooklyn Public Library,12143 FLATLANDS AVENUE,40.65326407,-73.88590905,Library,Brooklyn
Free,QPL,Briarwood,85-12 MAIN STREET,40.71003456,-73.81945312,Library,Briarwood
Free,NYPL,Tremont,1866 WASHINGTON AVENUE,40.84604232,-73.89834026,Library,Bronx
Free,NYPL,Ottendorfer,135 SECOND AVENUE,40.7289209,-73.98778373,Library,New York
Free,NYPL,Fort Washington,535 WEST 179 STREET,40.84787004,-73.93386591,Library,New York
Free,BPL,Windsor Terrace - Brooklyn Public Library,160 EAST 5 STREET,40.64871697,-73.97675728,Library,Brooklyn
Free,BPL,Walt Whitman - Brooklyn Public Library,93 ST EDWARDS STREET,40.6944897,-73.97773263,Library,Brooklyn
Free,BPL,Midwood - Brooklyn Public Library,975 EAST 16 STREET,40.62589331,-73.96031449,Library,Brooklyn
Free,NYPL,Library For Performing Arts,40 LINCOLN CENTER PLAZA,40.77350699,-73.98454685,Library,New York
Free,BPL,Arlington - Brooklyn Public Library,203 ARLINGTON AVENUE,40.68068711,-73.88723951,Library,Brooklyn
Free,QPL,Cambria Heights,220-20 LINDEN BOULEVARD,40.69477729,-73.73964257,Library,Cambria Heights
Free,BPL,Gravesend - Brooklyn Public Library,303 AVENUE X,40.59054439,-73.97180845,Library,Brooklyn
Free,QPL,Mitchell-Linden,29-42 UNION STREET,40.77112552,-73.82691581,Library,Flushing
Free,QPL,Flushing,41-17 MAIN STREET,40.75777407,-73.82888469,Library,Flushing
Free,QPL,Windsor Park,79-50 BELL BOULEVARD,40.73448626,-73.75568167,Library,Bayside
Free,NYPL,Terrence Cardinal Cooke-Cathedral,560 LEXINGTON AVENUE,40.75685718,-73.97263247,Library,New York
Free,QPL,Pomonok,158-21 JEWEL AVENUE,40.73303424,-73.80987988,Library,Flushing
Free,NYPL,Spuyten Duyvil,650 WEST 235 STREET,40.88627338,-73.91467001,Library,Bronx
Free,QPL,Laurelton,134-26 225 STREET,40.67695273,-73.74567356,Library,Laurelton
Free,BPL,Marcy - Brooklyn Public Library,617 DEKALB AVENUE,40.69162309,-73.9512835,Library,Brooklyn
Free,QPL,Fresh Meadows,193-20 HORACE HARDING EXPRESSWAY,40.74154357,-73.78227405,Library,Fresh Meadows
Free,BPL,Brighton Beach - Brooklyn Public Library,16 BRIGHTON 1 ROAD,40.57610775,-73.96677488,Library,Brooklyn
Free,QPL,East Flushing,196-36 NORTHERN BOULEVARD,40.75754568,-73.78430296,Library,Flushing
Free,NYPL,Edenwald,1255 EAST 233 STREET,40.8888949,-73.84083713,Library,Bronx
Free,BPL,Bay Ridge - Brooklyn Public Library,7223 RIDGE BOULEVARD,40.63362571,-74.02953835,Library,Brooklyn
Free,BPL,Brooklyn Heights - Brooklyn Public Library,280 CADMAN PLAZA WEST,40.69568256,-73.99134799,Library,Brooklyn
Free,NYPL,St. Agnes,444 AMSTERDAM AVENUE,40.78483464,-73.97745212,Library,New York
Free,QPL,Steinway,21-45 31 STREET,40.77681701,-73.90941702,Library,Long Island City
Free,QPL,Corona,38-23 104 STREET,40.75089408,-73.86197684,Library,Corona
Free,NYPL,Westchester Square,2521 GLEBE AVENUE,40.84110509,-73.84662166,Library,Bronx
Free,NYPL,Inwood,4790 BROADWAY,40.86572954,-73.92585331,Library,New York
Free,BPL,Borough Park - Brooklyn Public Library,1265 43 STREET,40.63888517,-73.98900778,Library,Brooklyn
Free,QPL,Sunnyside,43-06 GREENPOINT AVENUE,40.74080878,-73.92166916,Library,Long Island City
Free,QPL,Maspeth,69-70 GRAND AVENUE,40.72699537,-73.89310456,Library,Maspeth
Free,NYPL,George Bruce,518 WEST 125 STREET,40.81377343,-73.95706391,Library,New York
Free,NYPL,Riverside,127 AMSTERDAM AVENUE,40.77420291,-73.98445465,Library,New York
Free,NYPL,Countee Cullen,104 WEST 136 STREET,40.81482041,-73.94119767,Library,New York
Free,QPL,East Elmhurst,95-06 ASTORIA BOULEVARD,40.76242213,-73.87386663,Library,East Elmhurst
Free,QPL,Bellerose,250-06 HILLSIDE AVENUE,40.73515699,-73.71709897,Library,Bellerose
Free,BPL,Brownsville - Brooklyn Public Library,61 GLENMORE AVENUE,40.67152666,-73.90860343,Library,Brooklyn
Free,BPL,Crown Heights - Brooklyn Public Library,560 NEW YORK AVENUE,40.66118931,-73.9481023,Library,Brooklyn
Free,BPL,Eastern Parkway - Brooklyn Public Library,1044 EASTERN PARKWAY,40.66848651,-73.93365085,Library,Brooklyn
Free,QPL,Bay Terrace,18-36 BELL BOULEVARD,40.7825312,-73.77700881,Library,Bayside
Free,QPL,St. Albans,191-05 LINDEN BOULEVARD,40.69252805,-73.76010879,Library,Saint Albans
Free,NYPL,67th Street,328 EAST 67 STREET,40.76491501,-73.95954995,Library,New York
Free,NYPL,Yorkville,222 EAST 79 STREET,40.77360582,-73.95640407,Library,New York
Free,QPL,Peninsula,92-25 ROCKAWAY BEACH BOULEVARD,40.58583941,-73.81606162,Library,Rockaway Beach
Free,NYPL,Huguenot Park,830 HUGUENOT AVENUE,40.5340583,-74.19323686,Library,Staten Island
Free,BPL,Ulmer Park - Brooklyn Public Library,2602 BATH AVENUE,40.59265313,-73.9886821,Library,Brooklyn
Free,QPL,Hollis,202-05 HILLSIDE AVENUE,40.72016843,-73.76230411,Library,Hollis
Free,BPL,Flatlands - Brooklyn Public Library,2065 FLATBUSH AVENUE,40.6197682,-73.93321326,Library,Brooklyn
Free,BPL,Kensington - Brooklyn Public Library,410 DITMAS AVENUE,40.63569422,-73.97459471,Library,Brooklyn
Free,NYPL,Todt Hill-Westerleigh,2550 VICTORY BOULEVARD,40.6095775,-74.14850245,Library,Staten Island
Free,QPL,North Hills,57-04 MARATHON PARKWAY,40.75924513,-73.73182668,Library,Little Neck
Free,QPL,Baisley Park,117-11 SUTPHIN BOULEVARD,40.68031131,-73.79167861,Library,Jamaica
Free,QPL,Glendale,78-60 73 PLACE,40.70257666,-73.87579711,Library,Glendale
Free,NYPL,Sedgwick,1701 MARTIN LUTHER KING JR BOULEVARD,40.84949408,-73.91757753,Library,Bronx
Free,BPL,Williamsburgh - Brooklyn Public Library,240 DIVISION AVENUE,40.70693042,-73.95755461,Library,Brooklyn
Free,BPL,Kings Highway - Brooklyn Public Library,2115 OCEAN AVENUE,40.61025667,-73.95310585,Library,Brooklyn
Free,NYPL,Harlem,9 WEST 124 STREET,40.80616044,-73.9433156,Library,New York
Free,NYPL,High Bridge,78 WEST 168 STREET,40.83795891,-73.92353961,Library,Bronx
Free,QPL,Lefferts,103-34 LEFFERTS BOULEVARD,40.68690729,-73.8248297,Library,Richmond Hill
Free,BPL,Park Slope - Brooklyn Public Library,431 6 AVENUE,40.66821669,-73.98342743,Library,Brooklyn
Free,NYPL,Clason's Point,1215 MORRISON AVENUE,40.82999288,-73.8750206,Library,Bronx
Free,QPL,"Ravenswood, Now a Family Literacy Center",35-32 21 STREET,40.76064312,-73.93647199,Library,Long Island City
Free,QPL,Woodside,54-22 SKILLMAN AVENUE,40.74534171,-73.90979374,Library,Woodside
Free,QPL,Hillcrest,187-05 UNION TURNPIKE,40.72925295,-73.78190892,Library,Flushing
Free,BPL,Bushwick - Brooklyn Public Library,340 BUSHWICK AVENUE,40.70455906,-73.93961842,Library,Brooklyn
Free,NYPL,Woodstock,761 EAST 160 STREET,40.82064156,-73.90462886,Library,Bronx
Free,QPL,Howard Beach,92-06 156 AVENUE,40.66380446,-73.84179686,Library,Howard Beach
Free,NYPL,Science Industry And Business,188 MADISON AVENUE,40.7481247,-73.9830631,Library,New York
Free,NYPL,Roosevelt Island,524 MAIN STREET,40.76125337,-73.95016589,Library,New York
Free,NYPL,Castle Hill,947 CASTLE HILL AVENUE,40.82660923,-73.85018146,Library,Bronx
Free,BPL,Bedford - Brooklyn Public Library,496 FRANKLIN AVENUE,40.6818102,-73.95610851,Library,Brooklyn
Free,NYPL,Throg's Neck,3025 CROSS BRONX EXPRESSWAY,40.82290357,-73.81909364,Library,Bronx
Free,QPL,Rochdale Village,169-09 137 AVENUE,40.6728752,-73.77059022,Library,Jamaica
Free,QPL,Ridgewood,20-12 MADISON STREET,40.70517231,-73.90257238,Library,Ridgewood
Free,QPL,Far Rockaway,1637 CENTRAL AVENUE,40.60477211,-73.75209189,Library,Far Rockaway
Free,BPL,Leonard - Brooklyn Public Library,81 DEVOE STREET,40.71364489,-73.94793571,Library,Brooklyn
Free,QPL,South Jamaica,108-41 GUY R BREWER BOULEVARD,40.69554015,-73.79022739,Library,Jamaica
Free,BPL,Ryder - Brooklyn Public Library,5902 23 AVENUE,40.61591608,-73.97604049,Library,Brooklyn
Free,BPL,Fort Hamilton - Brooklyn Public Library,9424 FOURTH AVENUE,40.61637311,-74.03136941,Library,Brooklyn
Free,NYPL,Belmont Library-Enrico Fermi Cultural Center,610 EAST 186 STREET,40.85434691,-73.88788943,Library,Bronx
Free,QPL,Broad Channel,16-26 CROSS BAY BOULEVARD,40.60073211,-73.82005266,Library,Broad Channel
Free,NYPL,Richmondtown,200 CLARKE AVENUE,40.56653015,-74.13853388,Library,Staten Island
Free,NYPL,Stephen A. Schwarzman Building,5 AVENUE & 42 STREET,40.75318405,-73.9821581,Library,New York
Free,NYPL,Hudson Park,66 LEROY STREET,40.72998291,-74.00533101,Library,New York
Free,QPL,South Ozone Park,128-16 ROCKAWAY BOULEVARD,40.67477693,-73.80926182,Library,South Ozone Park
Free,QPL,North Forest Park,98-27 METROPOLITAN AVENUE,40.71118563,-73.85367278,Library,Forest Hills
Free,NYPL,Jefferson Market,425 AVENUE OF AMERICAS,40.73460553,-73.99916928,Library,New York
Free,BPL,East Flatbush - Brooklyn Public Library,9612 CHURCH AVENUE,40.6557102,-73.91493839,Library,Brooklyn
Free,QPL,Ozone Park,92-24 ROCKAWAY BOULEVARD,40.68086185,-73.84648873,Library,Ozone Park
Free,BPL,Stone Avenue - Brooklyn Public Library,581 MOTHER GASTON BOULEVARD,40.66445379,-73.90522231,Library,Brooklyn
Free,BPL,Cortelyou - Brooklyn Public Library,1305 CORTELYOU ROAD,40.64080355,-73.96596508,Library,Brooklyn
Free,QPL,Richmond Hill,118-14 HILLSIDE AVENUE,40.70076527,-73.83162542,Library,Richmond Hill
Free,NYPL,Epiphany,228 EAST 23 STREET,40.73808712,-73.98204889,Library,New York
Free,NYPL,Seward Park,192 EAST BROADWAY,40.71445646,-73.98853727,Library,New York
Free,BPL,Macon - Brooklyn Public Library,361 LEWIS AVENUE,40.6830049,-73.93480547,Library,Brooklyn
Free,NYPL,Schomburg Center For Research In Black Culture,515 MALCOLM X BOULEVARD,40.81468863,-73.94095299,Library,New York
Free,NYPL,Grand Concourse,155 EAST 173 STREET,40.84400191,-73.91008714,Library,Bronx
Free,BPL,Paerdegat - Brooklyn Public Library,850 EAST 59 STREET,40.63263699,-73.91998488,Library,Brooklyn
Free,NYPL,Eastchester,1385 EAST GUNHILL ROAD,40.8701397,-73.84506428,Library,Bronx
Free,NYPL,New Dorp,309 NEW DORP LANE,40.57193185,-74.11195815,Library,Staten Island
Free,NYPL,Wakefield,4100 LOWERRE PLACE,40.89108507,-73.85958124,Library,Bronx
Free,BPL,Mill Basin - Brooklyn Public Library,2385 RALPH AVENUE,40.61986842,-73.91702121,Library,Brooklyn
Free,NYPL,West New Brighton,976 CASTLETON AVENUE,40.63450894,-74.11482187,Library,Staten Island
Free,NYPL,Kips Bay,446 THIRD AVENUE,40.74382263,-73.97990765,Library,New York
Free,NYPL,Andrew Heiskell Braille & Talking Book Library,40 WEST 20 STREET,40.74046546,-73.99335691,Library,New York
Free,NYPL,Jerome Park,118 EAMES PLACE,40.86903939,-73.90119379,Library,Bronx
Free,QPL,Broadway,40-20 BROADWAY,40.75852927,-73.91862332,Library,Long Island City
Free,QPL,Elmhurst,86-01 BROADWAY,40.73858146,-73.87675877,Library,Elmhurst
Free,QPL,Central Adult Learning Center,91-14 MERRICK BOULEVARD,40.70596209,-73.79440753,Library,Jamaica
Free,NYPL,Great Kills,56 GIFFORDS LANE,40.55242326,-74.15111164,Library,Staten Island
Free,NYPL,New Amsterdam,9 MURRAY STREET,40.71360652,-74.00786167,Library,New York
Free,NYPL,Hamilton Fish Park,415 EAST HOUSTON STREET,40.71939728,-73.9796056,Library,New York
Free,NYPL,Hunt's Point,877 SOUTHERN BOULEVARD,40.8186874,-73.89413564,Library,Bronx
Free,NYPL,Allerton,2740 BARNES AVENUE,40.86680443,-73.86322248,Library,Bronx
Free,NYPL,Chatham Square,33 EAST BROADWAY,40.71333307,-73.99648987,Library,New York
Free,QPL,Bayside,214-20 NORTHERN BOULEVARD,40.76012558,-73.76836198,Library,Bayside
Free,QPL,Seaside,116-15 ROCKAWAY BEACH BOULEVARD,40.57939087,-73.8377356,Library,Rockaway Park
Free,BPL,Coney Island - Brooklyn Public Library,1901 MERMAID AVENUE,40.57663778,-73.98606199,Library,Brooklyn
Free,NYPL,Macomb's Bridge,2650 ADAM CLAYTON POWELL JR BOULEVARD,40.82656708,-73.93593959,Library,New York
Free,QPL,Long Island City,37-44 21 STREET,40.75780343,-73.9393093,Library,Long Island City
Free,NYPL,Bronx Library Center,310 East Kingsbridge Road,40.86298061,-73.89450289,Library,Bronx
Free,NYPL,Morris Park,985 MORRIS PARK AVENUE,40.84802911,-73.85695785,Library,Bronx
Free,NYPL,Mulberry Street,10 Jersey Street,40.72409636,-73.99569899,Library,New York
Free,NYPL,Grand Central,135 EAST 46 STREET,40.75406788,-73.97356772,Library,New York
Free,Manhattan Down Alliance,13,"1-17 Gouverneur Lane, New York, NY 10005, USA",40.7041016,-74.0076981,Outdoor,New York
Free,Manhattan Down Alliance,14,"42 South Street, New York, NY 10005, USA",40.7036018,-74.0074997,Outdoor,New York
Free,Manhattan Down Alliance,15,"29-43 Old Slip, New York, NY 10004, USA",40.7033997,-74.0084,Outdoor,New York
Free,Manhattan Down Alliance,16,"13 Hanover Square, New York, NY 10004, USA",40.7041016,-74.009201,Outdoor,New York
Free,Manhattan Down Alliance,17,"55 Water Street, New York, NY 10041, USA",40.7033005,-74.0093002,Outdoor,New York
Free,Manhattan Down Alliance,18,"55 Water Street, New York, NY 10041, USA",40.7028999,-74.0095978,Outdoor,New York
Free,Manhattan Down Alliance,19,"55 Water Street, New York, NY 10041, USA",40.7028008,-74.0094986,Outdoor,New York
Free,Manhattan Down Alliance,20,"23-39 Water Street, New York, NY 10004, USA",40.7030983,-74.0106964,Outdoor,New York
Free,Manhattan Down Alliance,21,"77 Whitehall Street, New York, NY 10004, USA",40.702301,-74.0126038,Outdoor,New York
Free,Manhattan Down Alliance,22,"83-85 Whitehall Street, New York, NY 10004, USA",40.7019005,-74.0124969,Outdoor,New York
Free,Manhattan Down Alliance,23,"Downtown Manhattan Heliport, 6 East River Piers, New York, USA",40.7015991,-74.0093002,Outdoor,New York
Free,Manhattan Down Alliance,24,"11-27 Canyon of Heroes, New York, NY 10004, USA",40.705101,-74.0139999,Outdoor,New York
Free,Manhattan Down Alliance,25,"10-30 Broadway, New York, NY 10004, USA",40.705101,-74.0139008,Outdoor,New York
Free,Manhattan Down Alliance,26,"2-8 Coenties Alley, New York, NY 10004, USA",40.7041016,-74.0105972,Outdoor,New York
Free,Manhattan Down Alliance,27,"79 Pearl Street, New York, NY 10004, USA",40.7038994,-74.0103989,Outdoor,New York
Free,Manhattan Down Alliance,28,"95 Pearl Street, New York, NY 10004, USA",40.7043991,-74.0101013,Outdoor,New York
Free,Manhattan Down Alliance,29,"54 Stone Street, New York, NY 10004, USA",40.7042999,-74.0102005,Outdoor,New York
Free,Manhattan Down Alliance,30,"74 Broadway, New York, NY 10006, USA",40.707901,-74.0121994,Outdoor,New York
Free,Manhattan Down Alliance,31,"111 Greenwich Street, New York, NY 10006, USA",40.7086983,-74.0130997,Outdoor,New York
Free,Manhattan Down Alliance,32,"250 Greenwich Street, New York, NY 10007, USA",40.7130013,-74.0118027,Outdoor,New York
Free,Manhattan Down Alliance,33,"250 Greenwich Street, New York, NY 10007, USA",40.7132988,-74.0118027,Outdoor,New York
Free,Manhattan Down Alliance,34,"75 Broadway, New York, NY 10006, USA",40.7081985,-74.0121002,Outdoor,New York
Free,Manhattan Down Alliance,35,"75 Broadway, New York, NY 10006, USA",40.7080994,-74.0119019,Outdoor,New York
Free,Manhattan Down Alliance,36,"74 Broadway, New York, NY 10006, USA",40.7080002,-74.0118027,Outdoor,New York
Free,CBS Outdoor LLC,Public Pay Telephone,115  4 AVENUE,40.73291929,-73.98998354,Payphone,New York
Free,CBS Outdoor LLC,Public Pay Telephone,126  EAST 39 STREET,40.74968802,-73.97781099,Payphone,New York
Free,CBS Outdoor LLC,Public Pay Telephone,451  3 AVENUE,40.74391337,-73.97943328,Payphone,New York
Free,CBS Outdoor LLC,Public Pay Telephone,824  BROADWAY,40.73310054,-73.99112733,Payphone,New York
Free,CBS Outdoor LLC,Public Pay Telephone,45  3 AVENUE,40.73063008,-73.98910351,Payphone,New York
Free,CBS Outdoor LLC,Public Pay Telephone,30-94  STEINWAY STREET,40.76201128,-73.91654119,Payphone,Queens
Free,"TITAN OUTDOOR COMMUNICATIONS, INC.",Public Pay Telephone,1609 BROADWAY,40.76060772,-73.98456117,Payphone,New York
Free,TELEBEAM TELECOMMUNICATIONS CORPORATION,Public Pay Telephone,62 9 AVENUE,40.74150521,-74.00494753,Payphone,New York
Free,TELEBEAM TELECOMMUNICATIONS CORPORATION,Public Pay Telephone,304 5 AVENUE,40.67349152,-73.98271754,Payphone,Brooklyn
Free,TELEBEAM TELECOMMUNICATIONS CORPORATION,Public Pay Telephone,2061 BROADWAY,40.77818742,-73.98211266,Payphone,New York
Free,CBS Outdoor LLC,Public Pay Telephone,398  PEARL STREET,40.69198923,-73.98821192,Payphone,Brooklyn
Free,CBS Outdoor LLC,Public Pay Telephone,458  ALBEE SQUARE,40.69031709,-73.98350288,Payphone,Brooklyn
Free,CBS Outdoor LLC,Public Pay Telephone,1  GALLATIN PLACE,40.69095702,-73.98654976,Payphone,Brooklyn
Free,CBS Outdoor LLC,Public Pay Telephone,175  2 AVENUE,40.73047883,-73.98631447,Payphone,New York
Free,CBS Outdoor LLC,Public Pay Telephone,192  2 AVENUE,40.73111006,-73.98583085,Payphone,New York
Free,CBS Outdoor LLC,Public Pay Telephone,42-20  BROADWAY,40.75810597,-73.91717776,Payphone,Queens
Free,CBS Outdoor LLC,Public Pay Telephone,44-18  BROADWAY,40.75736099,-73.91559048,Payphone,Queens
Free,CBS Outdoor LLC,Public Pay Telephone,7911  5 AVENUE,40.62634869,-74.02390961,Payphone,Brooklyn
Free,CBS Outdoor LLC,Public Pay Telephone,84-54  63 ROAD,40.72361481,-73.8691981,Payphone,Queens
Free,TELEBEAM TELECOMMUNICATIONS CORPORATION,Public Pay Telephone,711 6 AVENUE,40.74280336,-73.99288712,Payphone,New York
Free,TELEBEAM TELECOMMUNICATIONS CORPORATION,Public Pay Telephone,80 1 AVENUE,40.72561791,-73.98671233,Payphone,New York
Free,TELEBEAM TELECOMMUNICATIONS CORPORATION,Public Pay Telephone,1260 BROADWAY,40.74839951,-73.9881442,Payphone,New York
Free,TELEBEAM TELECOMMUNICATIONS CORPORATION,Public Pay Telephone,43 AVENUE C,40.72200765,-73.98037803,Payphone,New York
Free,TELEBEAM TELECOMMUNICATIONS CORPORATION,Public Pay Telephone,69 5 AVENUE,40.73610346,-73.99353374,Payphone,New York
Free,TELEBEAM TELECOMMUNICATIONS CORPORATION,Public Pay Telephone,460 PARK AVENUE SOUTH,40.74509142,-73.98280363,Payphone,New York
Free,TELEBEAM TELECOMMUNICATIONS CORPORATION,Public Pay Telephone,985 BRUCKNER BOULEVARD,40.8199205,-73.89123208,Payphone,Bronx
Free,CBS Outdoor LLC,Public Pay Telephone,2279  3 AVENUE,40.80287111,-73.93640667,Payphone,New York
Free,CBS Outdoor LLC,Public Pay Telephone,189-16  HILLSIDE AVENUE,40.71546616,-73.77253132,Payphone,Queens
Free,CBS Outdoor LLC,Public Pay Telephone,201  EAST 39 STREET,40.74881751,-73.97569996,Payphone,New York
Free,CBS Outdoor LLC,Public Pay Telephone,424  WEST BROADWAY,40.72514108,-74.00144673,Payphone,New York
Free,TELEBEAM TELECOMMUNICATIONS CORPORATION,Public Pay Telephone,931 WESTCHESTER AVENUE,40.82186665,-73.89737833,Payphone,Bronx
Free,TELEBEAM TELECOMMUNICATIONS CORPORATION,Public Pay Telephone,850 LONGWOOD AVENUE,40.81939993,-73.901425,Payphone,Bronx
Free,TELEBEAM TELECOMMUNICATIONS CORPORATION,Public Pay Telephone,378 MYRTLE AVENUE,40.69317195,-73.97109003,Payphone,Brooklyn
Free,"TITAN OUTDOOR COMMUNICATIONS, INC.",Public Pay Telephone,458 7 AVENUE,40.751515,-73.99025144,Payphone,New York
Free,TELEBEAM TELECOMMUNICATIONS CORPORATION,Public Pay Telephone,4220 BROADWAY,40.84902381,-73.93696256,Payphone,New York
Free,TELEBEAM TELECOMMUNICATIONS CORPORATION,Public Pay Telephone,2878 BROADWAY,40.80535383,-73.96582174,Payphone,New York
Free,TELEBEAM TELECOMMUNICATIONS CORPORATION,Public Pay Telephone,1398 ST NICHOLAS AVENUE,40.84852828,-73.93429914,Payphone,New York
Free,TELEBEAM TELECOMMUNICATIONS CORPORATION,Public Pay Telephone,90-13 ROOSEVELT AVENUE,40.74846248,-73.87609679,Payphone,Queens
Free,TELEBEAM TELECOMMUNICATIONS CORPORATION,Public Pay Telephone,103-02 ROOSEVELT AVENUE,40.74950947,-73.86266163,Payphone,Queens
Free,TELEBEAM TELECOMMUNICATIONS CORPORATION,Public Pay Telephone,1741 BROADWAY,40.76518559,-73.98208727,Payphone,New York
Free,CBS Outdoor LLC,Public Pay Telephone,8  THOMPSON STREET,40.72229193,-74.00481983,Payphone,New York
Free,"TITAN OUTDOOR COMMUNICATIONS, INC.",Public Pay Telephone,410 MADISON AVENUE,40.75651396,-73.97658149,Payphone,New York
Free,TELEBEAM TELECOMMUNICATIONS CORPORATION,Public Pay Telephone,112 WEST 67 STREET,40.77456434,-73.98194033,Payphone,New York
Free,Transit Wireless,5th Avenue - 7,5th Avenue and East 42 Street,40.753827,-73.981967,Subway Station,New York
Free,Transit Wireless,66th Street â (Lincoln Center) - 1,66th St. â Broadway (Lincoln Center),40.77344,-73.982209,Subway Station,New York
Free,Transit Wireless,"72nd St. â Broadway - 1, 2, 3",72nd Street - Broadway,40.778453,-73.98197,Subway Station,New York
Free,Transit Wireless,"72nd Street - Central Park West - B, C",72nd Street - Central Park West,40.775594,-73.976417,Subway Station,New York
Free,Transit Wireless,79th Street - 1,79th Street - Broadway,40.783934,-73.979917,Subway Station,New York
Free,Transit Wireless,"7th Avenue - B, D, E",7th Avenue - 53rd Street,40.762862,-73.981637,Subway Station,New York
Free,Transit Wireless,8 Avenue - L,8 Avenue and West 14th Street,40.739777,-74.002578,Subway Station,New York
Free,Transit Wireless,"81st Street - Museum of Natural History - B, C",81st Street - Museum of Natural History,40.781433,-73.972143,Subway Station,New York
Free,CBS Outdoor LLC,Public Pay Telephone,144  BLEECKER STREET,40.72815483,-73.99915213,Payphone,New York
Free,CBS Outdoor LLC,Public Pay Telephone,836  6 AVENUE,40.74674735,-73.98999229,Payphone,New York
Free,CBS Outdoor LLC,Public Pay Telephone,223  8 AVENUE,40.74425006,-73.99926019,Payphone,New York
Free,CBS Outdoor LLC,Public Pay Telephone,6  ST MARKS PLACE,40.72932361,-73.98938876,Payphone,New York
Free,Transit Wireless,86th Street - 1,86th Street - Broadway,40.788644,-73.976218,Subway Station,New York
Free,Transit Wireless,"86th Street - Central Park West - B, C",86th Street - Central Park West,40.785868,-73.968916,Subway Station,New York
Free,Transit Wireless,"96th Street - Central Park West - B, C",96th Street - Central Park West,40.791644,-73.964694,Subway Station,New York
Free,Transit Wireless,"96th Street - Broadway - 1, 2, 3",96th Street - Broadway,40.793919,-73.972323,Subway Station,New York
Free,Transit Wireless,Grand Central - 7,Lexington Avenue and East 42 Street,40.75143,-73.97604,Subway Station,New York
Free,Transit Wireless,"Grand Central - 4, 5, 6",Lexington Avenue and East 42 Street,40.75177,-73.976862,Subway Station,New York
Free,Transit Wireless,Grand Central Shuttle  - S,Times Square - 42nd Street,40.752769,-73.979189,Subway Station,New York
Free,Transit Wireless,Times Square - 7,Times Square - 42nd Street,40.755477,-73.987716,Subway Station,New York
Free,Transit Wireless,"Times Square - N, Q, R",Times Square - 42nd Street,40.754669,-73.986754,Subway Station,New York
Free,Transit Wireless,"Times Square - 1, 2, 3",Times Square - 42nd Street,40.75529,-73.987513,Subway Station,New York
Free,Transit Wireless,Times Square Shuttle - S,Times Square Shuttle â 42nd Street,40.755983,-73.986229,Subway Station,New York
Free,Transit Wireless,21ST - L. I.CITY - QUEENSBRIDGE,IND-F-21ST ST - QUEENSBRIDGE,40.75374389,-73.94194808,Subway Station,Queens
Free,Transit Wireless,VERNON - JACKSON AVENUE,IRT-7-VERNON BLVD-JACKSON AVE,40.74262829,-73.95358029,Subway Station,Queens
Free,Transit Wireless,HUNTERS POINT,IRT-7-HUNTERSPOINT AVE,40.74223051,-73.94892183,Subway Station,Queens
Free,Transit Wireless,23RD - ELY AVENUE,IND-E-V-23RD ST - ELY AV,40.74784597,-73.94600001,Subway Station,Queens
Free,Transit Wireless,COURT SQ. - LONG ISLAND CITY,IND-G-LONG ISLAND CITY/COURT SQ,40.74651147,-73.94393829,Subway Station,Queens
Free,Transit Wireless,21ST STREET - VAN ALST (21st Street & Jackson Avenue),IND-G-21ST ST,40.74409194,-73.9496583,Subway Station,Queens
Free,Transit Wireless,65TH STREET,IND-E-G-R-V-65TH ST,40.74979936,-73.89875653,Subway Station,Queens
Free,Transit Wireless,WOODHAVEN BLVD - QUEENS MALL,IND-E-G-R-V-WOODHAVEN BLVD,40.73316813,-73.86940233,Subway Station,Queens
Free,Transit Wireless,46TH STREET,IND-E-G-R-V-46TH ST,40.75634196,-73.91339899,Subway Station,Queens
Free,Transit Wireless,NORTHERN BOULEVARD,IND-E-G-R-V-NORTHERN BLVD,40.75290623,-73.90605771,Subway Station,Queens
Free,Transit Wireless,ELMHURST AVENUE,IRT-7-90TH ST - ELMHURST AV,40.74840228,-73.87661205,Subway Station,Queens
Free,Transit Wireless,VAN WYCK BLVD - BRIARWOOD,IND-E-F-BRIARWOOD / VAN WYCK BLVD,40.70916085,-73.82062602,Subway Station,Queens
Free,Transit Wireless,71 AV - CONTINENTAL AVE - FOREST HILLS,334A IND NR 71 AV,40.72167836,-73.84451297,Subway Station,Queens
Free,Transit Wireless,SUTPHIN BOULEVARD,338B IND NR SUTPHN,40.70542584,-73.81083707,Subway Station,Queens
Free,Transit Wireless,PARSONS - ARCHER (JAMAICA CENTER),IND-E-J-Z-JAMAICA CENTER - PARSONS / ARCHER,40.70220559,-73.8009696,Subway Station,Queens
Free,Transit Wireless,179TH STREET - JAMAICA,IND-F-JAMAICA - 179TH ST,40.71271079,-73.78356076,Subway Station,Queens
Free,Transit Wireless,GRAND AVENUE - NEWTOWN,IND-E-G-R-V-GRAND AVE - NEWTOWN,40.73679539,-73.87707008,Subway Station,Queens
Free,Transit Wireless,36 STREET (NORTHERN BLVD),IND-E-G-R-V-36TH ST,40.75203498,-73.92900562,Subway Station,Queens
Free,Transit Wireless,QUEENS PLAZA (IND),IND-E-G-R-V-QUEENS PLZ,40.74897199,-73.93724244,Subway Station,Queens
Free,Transit Wireless,STEINWAY STREET,IND-E-G-R-V-STEINWAY ST,40.75697089,-73.92062706,Subway Station,Queens
Free,Transit Wireless,PARSONS BOULEVARD,STATIONLAB 339A IND NR PARSNS,40.70757268,-73.80328952,Subway Station,Queens
Free,Transit Wireless,169TH STREET,340A IND NR 169 ST,40.71046974,-73.79361526,Subway Station,Queens
Free,Transit Wireless,63RD DRIVE - REGO PARK,330B IND NR 63 DR,40.72985583,-73.86159729,Subway Station,Queens
Free,Transit Wireless,67TH AVENUE,IND-E-G-R-V-67TH AVE,40.72660879,-73.85274875,Subway Station,Queens
Free,Transit Wireless,SUTPHIN BLVD - ARCHER - JFK AIRPORT,IND-E-J-Z-SUTPHIN BLVD - ARCHER AV,40.70048293,-73.80802911,Subway Station,Queens
Free,Transit Wireless,75TH AVENUE,IND-E-F-75TH AVE,40.71821386,-73.8367428,Subway Station,Queens
Free,Transit Wireless,UNION TURNPIKE (Kew Gardens),IND-E-F-KEW GARDENS - UNION TPKE,40.71407071,-73.83043471,Subway Station,Queens
Free,Transit Wireless,ROOSEVELT AVENUE (JACKSON HEIGHTS),IND-E-F-G-R-V-JACKSON HTS-ROOSEVELT AV,40.74663789,-73.89138366,Subway Station,Queens
Free,CBS Outdoor LLC,Public Pay Telephone,235  8 AVENUE,40.74453826,-73.99904726,Payphone,New York
Free,CBS Outdoor LLC,Public Pay Telephone,531  3 AVENUE,40.74664127,-73.97744029,Payphone,New York
Free,CBS Outdoor LLC,Public Pay Telephone,183  CHURCH STREET,40.71574006,-74.00728675,Payphone,New York
Free,CBS Outdoor LLC,Public Pay Telephone,75  EAST BROADWAY,40.71370628,-73.99434031,Payphone,New York
Free,CBS Outdoor LLC,Public Pay Telephone,2401  2 AVENUE,40.8015772,-73.93437076,Payphone,New York
Free,CBS Outdoor LLC,Public Pay Telephone,35-01  JUNCTION BOULEVARD,40.7530633,-73.87164154,Payphone,Queens
Free,CBS Outdoor LLC,Public Pay Telephone,3901  RICHMOND AVENUE,40.54297614,-74.16390237,Payphone,Staten Island
Free,CBS Outdoor LLC,Public Pay Telephone,410  WEST BROADWAY,40.72478975,-74.00174617,Payphone,New York
Free,CBS Outdoor LLC,Public Pay Telephone,402  WEST BROADWAY,40.72427372,-74.0021827,Payphone,New York
Free,CBS Outdoor LLC,Public Pay Telephone,133-01  41 ROAD,40.75664492,-73.83102388,Payphone,Queens
Free,CBS Outdoor LLC,Public Pay Telephone,133-45  41 ROAD,40.75697327,-73.8303264,Payphone,Queens
Free,CBS Outdoor LLC,Public Pay Telephone,86-15  JUSTICE AVENUE,40.73784126,-73.87700423,Payphone,Queens
Free,CBS Outdoor LLC,Public Pay Telephone,66  EAST 13 STREET,40.73388551,-73.99074475,Payphone,New York
Free,CBS Outdoor LLC,Public Pay Telephone,857  3 AVENUE,40.75697627,-73.9699109,Payphone,New York
